{
"type": "FeatureCollection",
"name": "5_m_cities",
"crs": { "type": "name", "properties": { "name": "urn:ogc:def:crs:OGC:1.3:CRS84" } },
"features": [
{ "type": "Feature", "properties": { "pop2024": "37115000", "pop2025": "37036200", "population": "37036200", "growthRate": "-0.00212", "city": "Tokyo", "country": "Japan", "type": "w", "cca2": "JP", "rank": "1", "result_num": "0", "osm_id": "1543125", "display_na": "東京都, 日本", "category": "boundary", "latlong": "administrative" }, "geometry": { "type": "Point", "coordinates": [ 139.7638947, 35.6768601 ] } },
{ "type": "Feature", "properties": { "pop2024": "33807400", "pop2025": "34665600", "population": "34665600", "growthRate": "0.02538", "city": "Delhi", "country": "India", "type": "w", "cca2": "IN", "rank": "2", "result_num": "0", "osm_id": "1942586", "display_na": "Delhi, India", "category": "boundary", "latlong": "administrative" }, "geometry": { "type": "Point", "coordinates": [ 77.1716954, 28.6273928 ] } },
{ "type": "Feature", "properties": { "pop2024": "29867900", "pop2025": "30482100", "population": "30482100", "growthRate": "0.02056", "city": "Shanghai", "country": "China", "type": "w", "cca2": "CN", "rank": "3", "result_num": "0", "osm_id": "913067", "display_na": "上海市, 中国", "category": "boundary", "latlong": "administrative" }, "geometry": { "type": "Point", "coordinates": [ 121.4700152, 31.2312707 ] } },
{ "type": "Feature", "properties": { "pop2024": "23935700", "pop2025": "24652900", "population": "24652900", "growthRate": "0.02996", "city": "Dhaka", "country": "Bangladesh", "type": "w", "cca2": "BD", "rank": "4", "result_num": "0", "osm_id": "3442474911", "display_na": "ঢাকা, ঢাকা মহানগর, ঢাকা জেলা, ঢাকা বিভাগ, 1215, বাংলাদেশ", "category": "place", "latlong": "city" }, "geometry": { "type": "Point", "coordinates": [ 90.3890144, 23.7643863 ] } },
{ "type": "Feature", "properties": { "pop2024": "22623900", "pop2025": "23074200", "population": "23074200", "growthRate": "0.0199", "city": "Cairo", "country": "Egypt", "type": "w", "cca2": "EG", "rank": "5", "result_num": "0", "osm_id": "5466227", "display_na": "القاهرة, مصر", "category": "place", "latlong": "city" }, "geometry": { "type": "Point", "coordinates": [ 31.2357257, 30.0443879 ] } },
{ "type": "Feature", "properties": { "pop2024": "22806700", "pop2025": "22990000", "population": "22990000", "growthRate": "0.00804", "city": "Sao Paulo", "country": "Brazil", "type": "w", "cca2": "BR", "rank": "6", "result_num": "0", "osm_id": "298285", "display_na": "São Paulo, Região Imediata de São Paulo, Região Metropolitana de São Paulo, Região Geográfica Intermediária de São Paulo, São Paulo, Região Sudeste, Brasil", "category": "boundary", "latlong": "administrative" }, "geometry": { "type": "Point", "coordinates": [ -46.6333824, -23.5506507 ] } },
{ "type": "Feature", "properties": { "pop2024": "22505300", "pop2025": "22752400", "population": "22752400", "growthRate": "0.01098", "city": "Mexico City", "country": "Mexico", "type": "w", "cca2": "MX", "rank": "7", "result_num": "0", "osm_id": "1376330", "display_na": "Ciudad de México, México", "category": "boundary", "latlong": "administrative" }, "geometry": { "type": "Point", "coordinates": [ -99.151467751244098, 19.3207722 ] } },
{ "type": "Feature", "properties": { "pop2024": "22189100", "pop2025": "22596500", "population": "22596500", "growthRate": "0.01836", "city": "Beijing", "country": "China", "type": "w", "cca2": "CN", "rank": "8", "result_num": "0", "osm_id": "912940", "display_na": "北京市, 中国", "category": "boundary", "latlong": "administrative" }, "geometry": { "type": "Point", "coordinates": [ 116.412144, 40.190632 ] } },
{ "type": "Feature", "properties": { "pop2024": "21673100", "pop2025": "22089000", "population": "22089000", "growthRate": "0.01919", "city": "Mumbai", "country": "India", "type": "w", "cca2": "IN", "rank": "9", "result_num": "0", "osm_id": "7964375", "display_na": "Mumbai Suburban, Maharashtra, India", "category": "boundary", "latlong": "administrative" }, "geometry": { "type": "Point", "coordinates": [ 72.8692035, 19.054999 ] } },
{ "type": "Feature", "properties": { "pop2024": "18967500", "pop2025": "18921600", "population": "18921600", "growthRate": "-0.00242", "city": "Osaka", "country": "Japan", "type": "w", "cca2": "JP", "rank": "10", "result_num": "0", "osm_id": "358674", "display_na": "大阪市, 大阪府, 日本", "category": "boundary", "latlong": "administrative" }, "geometry": { "type": "Point", "coordinates": [ 135.5014539, 34.6937569 ] } },
{ "type": "Feature", "properties": { "pop2024": "17773900", "pop2025": "18171200", "population": "18171200", "growthRate": "0.02235", "city": "Chongqing", "country": "China", "type": "w", "cca2": "CN", "rank": "11", "result_num": "0", "osm_id": "913069", "display_na": "重庆市, 中国", "category": "boundary", "latlong": "administrative" }, "geometry": { "type": "Point", "coordinates": [ 107.8748712, 30.05518 ] } },
{ "type": "Feature", "properties": { "pop2024": "17648600", "pop2025": "18076800", "population": "18076800", "growthRate": "0.02426", "city": "Karachi", "country": "Pakistan", "type": "w", "cca2": "PK", "rank": "12", "result_num": "0", "osm_id": "6080948", "display_na": "کراچی ڈویژن, سندھ, پاکستان", "category": "boundary", "latlong": "administrative" }, "geometry": { "type": "Point", "coordinates": [ 67.0207055, 24.8546842 ] } },
{ "type": "Feature", "properties": { "pop2024": "17032300", "pop2025": "17778500", "population": "17778500", "growthRate": "0.04381", "city": "Kinshasa", "country": "DR Congo", "type": "w", "cca2": "CD", "rank": "13", "result_num": "0", "osm_id": "5646651", "display_na": "Kinshasa, République démocratique du Congo", "category": "boundary", "latlong": "administrative" }, "geometry": { "type": "Point", "coordinates": [ 15.3424196, -4.3196982 ] } },
{ "type": "Feature", "properties": { "pop2024": "16536000", "pop2025": "17156400", "population": "17156400", "growthRate": "0.03752", "city": "Lagos", "country": "Nigeria", "type": "w", "cca2": "NG", "rank": "14", "result_num": "0", "osm_id": "27565124", "display_na": "Lagos, Lagos Island, Lagos, 100242, Nigeria", "category": "place", "latlong": "city" }, "geometry": { "type": "Point", "coordinates": [ 3.3941795, 6.4550575 ] } },
{ "type": "Feature", "properties": { "pop2024": "16047400", "pop2025": "16236700", "population": "16236700", "growthRate": "0.0118", "city": "Istanbul", "country": "Turkey", "type": "w", "cca2": "TR", "rank": "15", "result_num": "0", "osm_id": "1882099475", "display_na": "İstanbul, Fatih, İstanbul, Marmara Bölgesi, 34122, Türkiye", "category": "place", "latlong": "city" }, "geometry": { "type": "Point", "coordinates": [ 28.9758715, 41.006381 ] } },
{ "type": "Feature", "properties": { "pop2024": "15570800", "pop2025": "15845200", "population": "15845200", "growthRate": "0.01762", "city": "Kolkata", "country": "India", "type": "w", "cca2": "IN", "rank": "16", "result_num": "0", "osm_id": "9381363", "display_na": "Kolkata, West Bengal, India", "category": "boundary", "latlong": "administrative" }, "geometry": { "type": "Point", "coordinates": [ 88.3638953, 22.5726459 ] } },
{ "type": "Feature", "properties": { "pop2024": "15618300", "pop2025": "15752300", "population": "15752300", "growthRate": "0.00858", "city": "Buenos Aires", "country": "Argentina", "type": "w", "cca2": "AR", "rank": "17", "result_num": "0", "osm_id": "1224652", "display_na": "Buenos Aires, Comuna 6, Ciudad Autónoma de Buenos Aires, Argentina", "category": "boundary", "latlong": "administrative" }, "geometry": { "type": "Point", "coordinates": [ -58.4440583, -34.6083696 ] } },
{ "type": "Feature", "properties": { "pop2024": "14942000", "pop2025": "15230600", "population": "15230600", "growthRate": "0.01931", "city": "Manila", "country": "Philippines", "type": "w", "cca2": "PH", "rank": "18", "result_num": "0", "osm_id": "103703", "display_na": "Manila, Capital District, Metro Manila, Philippines", "category": "boundary", "latlong": "administrative" }, "geometry": { "type": "Point", "coordinates": [ 120.9803621, 14.5904492 ] } },
{ "type": "Feature", "properties": { "pop2024": "14590100", "pop2025": "14878700", "population": "14878700", "growthRate": "0.01978", "city": "Guangzhou", "country": "China", "type": "w", "cca2": "CN", "rank": "19", "result_num": "0", "osm_id": "3287346", "display_na": "广州市, 广东省, 中国", "category": "boundary", "latlong": "administrative" }, "geometry": { "type": "Point", "coordinates": [ 113.2592945, 23.1301964 ] } },
{ "type": "Feature", "properties": { "pop2024": "14407100", "pop2025": "14825800", "population": "14825800", "growthRate": "0.02906", "city": "Lahore", "country": "Pakistan", "type": "w", "cca2": "PK", "rank": "20", "result_num": "0", "osm_id": "1886594378", "display_na": "لاہور, تحصیل لاہور شہر, ضلع لاہور, لاہور ڈویژن, پنجاب, 54500, پاکستان", "category": "place", "latlong": "city" }, "geometry": { "type": "Point", "coordinates": [ 74.3141829, 31.5656822 ] } },
{ "type": "Feature", "properties": { "pop2024": "14470900", "pop2025": "14704100", "population": "14704100", "growthRate": "0.01612", "city": "Tianjin", "country": "China", "type": "w", "cca2": "CN", "rank": "21", "result_num": "0", "osm_id": "912999", "display_na": "天津市, 中国", "category": "boundary", "latlong": "administrative" }, "geometry": { "type": "Point", "coordinates": [ 117.4163641, 39.3032619 ] } },
{ "type": "Feature", "properties": { "pop2024": "14008300", "pop2025": "14395400", "population": "14395400", "growthRate": "0.02763", "city": "Bangalore", "country": "India", "type": "w", "cca2": "IN", "rank": "22", "result_num": "0", "osm_id": "7902476", "display_na": "Bengaluru, Bangalore North, Bengaluru Urban, Karnataka, India", "category": "boundary", "latlong": "local_authority" }, "geometry": { "type": "Point", "coordinates": [ 77.622600037959998, 12.98815675 ] } },
{ "type": "Feature", "properties": { "pop2024": "13824300", "pop2025": "13923200", "population": "13923200", "growthRate": "0.00715", "city": "Rio de Janeiro", "country": "Brazil", "type": "w", "cca2": "BR", "rank": "23", "result_num": "0", "osm_id": "2697338", "display_na": "Rio de Janeiro, Região Geográfica Imediata do Rio de Janeiro, Região Metropolitana do Rio de Janeiro, Região Geográfica Intermediária do Rio de Janeiro, Rio de Janeiro, Região Sudeste, Brasil", "category": "boundary", "latlong": "administrative" }, "geometry": { "type": "Point", "coordinates": [ -43.2093727, -22.9110137 ] } },
{ "type": "Feature", "properties": { "pop2024": "13311900", "pop2025": "13545400", "population": "13545400", "growthRate": "0.01754", "city": "Shenzhen", "country": "China", "type": "w", "cca2": "CN", "rank": "24", "result_num": "0", "osm_id": "3464353", "display_na": "深圳市, 广东省, 中国", "category": "boundary", "latlong": "administrative" }, "geometry": { "type": "Point", "coordinates": [ 114.0545429, 22.5445741 ] } },
{ "type": "Feature", "properties": { "pop2024": "12712300", "pop2025": "12737400", "population": "12737400", "growthRate": "0.00197", "city": "Moscow", "country": "Russia", "type": "w", "cca2": "RU", "rank": "25", "result_num": "0", "osm_id": "102269", "display_na": "Москва, Центральный федеральный округ, Россия", "category": "boundary", "latlong": "administrative" }, "geometry": { "type": "Point", "coordinates": [ 37.6063916, 55.625578 ] } },
{ "type": "Feature", "properties": { "pop2024": "12053700", "pop2025": "12336000", "population": "12336000", "growthRate": "0.02342", "city": "Chennai", "country": "India", "type": "w", "cca2": "IN", "rank": "26", "result_num": "0", "osm_id": "3233393892", "display_na": "Chennai, Tamil Nadu, 600001, India", "category": "place", "latlong": "city" }, "geometry": { "type": "Point", "coordinates": [ 80.270186, 13.0836939 ] } },
{ "type": "Feature", "properties": { "pop2024": "11658200", "pop2025": "11795800", "population": "11795800", "growthRate": "0.0118", "city": "Bogota", "country": "Colombia", "type": "w", "cca2": "CO", "rank": "27", "result_num": "0", "osm_id": "7426387", "display_na": "Bogotá, Bogotá, Distrito Capital, RAP (Especial) Central, Colombia", "category": "boundary", "latlong": "administrative" }, "geometry": { "type": "Point", "coordinates": [ -74.0836547, 4.6534109 ] } },
{ "type": "Feature", "properties": { "pop2024": "11436000", "pop2025": "11634100", "population": "11634100", "growthRate": "0.01732", "city": "Jakarta", "country": "Indonesia", "type": "w", "cca2": "ID", "rank": "28", "result_num": "0", "osm_id": "6362934", "display_na": "Daerah Khusus ibukota Jakarta, Jawa, Indonesia", "category": "boundary", "latlong": "administrative" }, "geometry": { "type": "Point", "coordinates": [ 106.827168, -6.1754049 ] } },
{ "type": "Feature", "properties": { "pop2024": "11361900", "pop2025": "11517300", "population": "11517300", "growthRate": "0.01368", "city": "Lima", "country": "Peru", "type": "w", "cca2": "PE", "rank": "29", "result_num": "0", "osm_id": "4289361265", "display_na": "Lima, Lima Metropolitana, Lima, 15083, Perú", "category": "place", "latlong": "city" }, "geometry": { "type": "Point", "coordinates": [ -77.0365256, -12.0621065 ] } },
{ "type": "Feature", "properties": { "pop2024": "11233900", "pop2025": "11391700", "population": "11391700", "growthRate": "0.01405", "city": "Bangkok", "country": "Thailand", "type": "w", "cca2": "TH", "rank": "30", "result_num": "0", "osm_id": "92277", "display_na": "กรุงเทพมหานคร, ประเทศไทย", "category": "boundary", "latlong": "administrative" }, "geometry": { "type": "Point", "coordinates": [ 100.4935089, 13.7524938 ] } },
{ "type": "Feature", "properties": { "pop2024": "11276700", "pop2025": "11346800", "population": "11346800", "growthRate": "0.00622", "city": "Paris", "country": "France", "type": "w", "cca2": "FR", "rank": "31", "result_num": "0", "osm_id": "71525", "display_na": "Paris, Île-de-France, France métropolitaine, France", "category": "boundary", "latlong": "administrative" }, "geometry": { "type": "Point", "coordinates": [ 2.3483915, 48.8534951 ] } },
{ "type": "Feature", "properties": { "pop2024": "11068900", "pop2025": "11337900", "population": "11337900", "growthRate": "0.0243", "city": "Hyderabad", "country": "India", "type": "w", "cca2": "IN", "rank": "32", "result_num": "0", "osm_id": "7868535", "display_na": "Hyderabad, Bahadurpura mandal, Hyderabad, Telangana, India", "category": "boundary", "latlong": "administrative" }, "geometry": { "type": "Point", "coordinates": [ 78.4740613, 17.360589 ] } },
{ "type": "Feature", "properties": { "pop2024": "9947550", "pop2025": "10174900", "population": "10174900", "growthRate": "0.02285", "city": "Nanjing", "country": "China", "type": "w", "cca2": "CN", "rank": "33", "result_num": "0", "osm_id": "2131524", "display_na": "南京市, 江苏省, 中国", "category": "boundary", "latlong": "administrative" }, "geometry": { "type": "Point", "coordinates": [ 118.7788631, 32.0438284 ] } },
{ "type": "Feature", "properties": { "pop2024": "9651030", "pop2025": "10027900", "population": "10027900", "growthRate": "0.03905", "city": "Luanda", "country": "Angola", "type": "w", "cca2": "AO", "rank": "34", "result_num": "0", "osm_id": "693999814", "display_na": "Luanda, Município de Luanda, Luanda, Angola", "category": "place", "latlong": "city" }, "geometry": { "type": "Point", "coordinates": [ 13.2439512, -8.8272699 ] } },
{ "type": "Feature", "properties": { "pop2024": "10004800", "pop2025": "10025800", "population": "10025800", "growthRate": "0.0021", "city": "Seoul", "country": "South Korea", "type": "w", "cca2": "KR", "rank": "35", "result_num": "0", "osm_id": "2297418", "display_na": "서울특별시, 대한민국", "category": "boundary", "latlong": "administrative" }, "geometry": { "type": "Point", "coordinates": [ 126.9782914, 37.5666791 ] } },
{ "type": "Feature", "properties": { "pop2024": "9828110", "pop2025": "9998870", "population": "9998870", "growthRate": "0.01737", "city": "Chengdu", "country": "China", "type": "w", "cca2": "CN", "rank": "36", "result_num": "0", "osm_id": "2110264", "display_na": "成都市, 四川省, 中国", "category": "boundary", "latlong": "administrative" }, "geometry": { "type": "Point", "coordinates": [ 104.063315, 30.659867 ] } },
{ "type": "Feature", "properties": { "pop2024": "9748030", "pop2025": "9840740", "population": "9840740", "growthRate": "0.00951", "city": "London", "country": "United Kingdom", "type": "w", "cca2": "GB", "rank": "37", "result_num": "0", "osm_id": "65606", "display_na": "London, Greater London, England, United Kingdom", "category": "place", "latlong": "city" }, "geometry": { "type": "Point", "coordinates": [ -0.1277653, 51.5074456 ] } },
{ "type": "Feature", "properties": { "pop2024": "9567660", "pop2025": "9816320", "population": "9816320", "growthRate": "0.02599", "city": "Ho Chi Minh City", "country": "Vietnam", "type": "w", "cca2": "VN", "rank": "38", "result_num": "0", "osm_id": "1973756", "display_na": "Thành phố Hồ Chí Minh, Việt Nam", "category": "boundary", "latlong": "administrative" }, "geometry": { "type": "Point", "coordinates": [ 106.7011391, 10.7763897 ] } },
{ "type": "Feature", "properties": { "pop2024": "9616010", "pop2025": "9729740", "population": "9729740", "growthRate": "0.01183", "city": "Tehran", "country": "Iran", "type": "w", "cca2": "IR", "rank": "39", "result_num": "0", "osm_id": "6663864", "display_na": "شهر تهران, بخش مرکزی شهرستان تهران, شهرستان تهران, استان تهران, ایران", "category": "place", "latlong": "city" }, "geometry": { "type": "Point", "coordinates": [ 51.3896004, 35.6892523 ] } },
{ "type": "Feature", "properties": { "pop2024": "9556880", "pop2025": "9534790", "population": "9534790", "growthRate": "-0.00231", "city": "Nagoya", "country": "Japan", "type": "w", "cca2": "JP", "rank": "40", "result_num": "0", "osm_id": "4576938", "display_na": "名古屋市, 愛知県, 日本", "category": "boundary", "latlong": "administrative" }, "geometry": { "type": "Point", "coordinates": [ 136.899843800000014, 35.1851045 ] } },
{ "type": "Feature", "properties": { "pop2024": "9013840", "pop2025": "9222080", "population": "9222080", "growthRate": "0.0231", "city": "Xi-an", "country": "China", "type": "w", "cca2": "CN", "rank": "41", "result_num": "0", "osm_id": "3226004", "display_na": "西安市, 陕西省, 中国", "category": "boundary", "latlong": "administrative" }, "geometry": { "type": "Point", "coordinates": [ 108.9423363, 34.261004 ] } },
{ "type": "Feature", "properties": { "pop2024": "8854440", "pop2025": "9061820", "population": "9061820", "growthRate": "0.02342", "city": "Ahmedabad", "country": "India", "type": "w", "cca2": "IN", "rank": "42", "result_num": "0", "osm_id": "245711197", "display_na": "Ahmedabad, Gujarat, 380001, India", "category": "place", "latlong": "city" }, "geometry": { "type": "Point", "coordinates": [ 72.5800568, 23.0215374 ] } },
{ "type": "Feature", "properties": { "pop2024": "8815630", "pop2025": "9000280", "population": "9000280", "growthRate": "0.02095", "city": "Kuala Lumpur", "country": "Malaysia", "type": "w", "cca2": "MY", "rank": "43", "result_num": "0", "osm_id": "2939672", "display_na": "Kuala Lumpur, Malaysia", "category": "boundary", "latlong": "administrative" }, "geometry": { "type": "Point", "coordinates": [ 101.7022205, 3.1526589 ] } },
{ "type": "Feature", "properties": { "pop2024": "8850850", "pop2025": "8986480", "population": "8986480", "growthRate": "0.01532", "city": "Wuhan", "country": "China", "type": "w", "cca2": "CN", "rank": "44", "result_num": "0", "osm_id": "3076268", "display_na": "武汉市, 湖北省, 中国", "category": "boundary", "latlong": "administrative" }, "geometry": { "type": "Point", "coordinates": [ 114.2999353, 30.5951051 ] } },
{ "type": "Feature", "properties": { "pop2024": "8350620", "pop2025": "8592820", "population": "8592820", "growthRate": "0.029", "city": "Suzhou", "country": "China", "type": "w", "cca2": "CN", "rank": "45", "result_num": "0", "osm_id": "4430941", "display_na": "苏州市, 江苏省, 中国", "category": "boundary", "latlong": "administrative" }, "geometry": { "type": "Point", "coordinates": [ 120.6212881, 31.311123 ] } },
{ "type": "Feature", "properties": { "pop2024": "8419840", "pop2025": "8591040", "population": "8591040", "growthRate": "0.02033", "city": "Hangzhou", "country": "China", "type": "w", "cca2": "CN", "rank": "46", "result_num": "0", "osm_id": "3221112", "display_na": "杭州市, 浙江省, 中国", "category": "boundary", "latlong": "administrative" }, "geometry": { "type": "Point", "coordinates": [ 120.2052342, 30.2489634 ] } },
{ "type": "Feature", "properties": { "pop2024": "8330530", "pop2025": "8581730", "population": "8581730", "growthRate": "0.03015", "city": "Surat", "country": "India", "type": "w", "cca2": "IN", "rank": "47", "result_num": "0", "osm_id": "10029899747", "display_na": "Surat, Katargam Taluka, Surat, Gujarat, 395008, India", "category": "place", "latlong": "city" }, "geometry": { "type": "Point", "coordinates": [ 72.8317058, 21.2094892 ] } },
{ "type": "Feature", "properties": { "pop2024": "8161230", "pop2025": "8561520", "population": "8561520", "growthRate": "0.04905", "city": "Dar es Salaam", "country": "Tanzania", "type": "w", "cca2": "TZ", "rank": "48", "result_num": "0", "osm_id": "7202037", "display_na": "Dar es-Salaam, Coastal Zone, Tanzania", "category": "boundary", "latlong": "administrative" }, "geometry": { "type": "Point", "coordinates": [ 39.2803583, -6.8160837 ] } },
{ "type": "Feature", "properties": { "pop2024": "7921130", "pop2025": "8141120", "population": "8141120", "growthRate": "0.02777", "city": "Baghdad", "country": "Iraq", "type": "w", "cca2": "IQ", "rank": "49", "result_num": "0", "osm_id": "5638803", "display_na": "بغداد, بلدية المنطقة الخضراء, محافظة بغداد, العراق", "category": "boundary", "latlong": "administrative" }, "geometry": { "type": "Point", "coordinates": [ 44.3872213, 33.3061701 ] } },
{ "type": "Feature", "properties": { "pop2024": "7830380", "pop2025": "7974270", "population": "7974270", "growthRate": "0.01838", "city": "Shenyang", "country": "China", "type": "w", "cca2": "CN", "rank": "50", "result_num": "0", "osm_id": "2769604", "display_na": "沈阳市, 辽宁省, 中国", "category": "boundary", "latlong": "administrative" }, "geometry": { "type": "Point", "coordinates": [ 123.4279105, 41.8026095 ] } },
{ "type": "Feature", "properties": { "pop2024": "7820550", "pop2025": "7952860", "population": "7952860", "growthRate": "0.01692", "city": "Riyadh", "country": "Saudi Arabia", "type": "w", "cca2": "SA", "rank": "51", "result_num": "0", "osm_id": "3678409", "display_na": "منطقة الرياض, السعودية", "category": "boundary", "latlong": "administrative" }, "geometry": { "type": "Point", "coordinates": [ 45.333333, 23.333333 ] } },
{ "type": "Feature", "properties": { "pop2024": "8097282", "pop2025": "7936530", "population": "7936530", "growthRate": "-0.0198", "city": "New York City", "country": "United States", "type": "us", "cca2": "US", "rank": "52", "result_num": "0", "osm_id": "175905", "display_na": "City of New York, New York, United States", "category": "boundary", "latlong": "administrative" }, "geometry": { "type": "Point", "coordinates": [ -74.0060152, 40.7127281 ] } },
{ "type": "Feature", "properties": { "pop2024": "7704940", "pop2025": "7817160", "population": "7817160", "growthRate": "0.01456", "city": "Foshan", "country": "China", "type": "w", "cca2": "CN", "rank": "53", "result_num": "0", "osm_id": "3464719", "display_na": "佛山市, 广东省, 中国", "category": "boundary", "latlong": "administrative" }, "geometry": { "type": "Point", "coordinates": [ 113.1159558, 23.0239788 ] } },
{ "type": "Feature", "properties": { "pop2024": "7675150", "pop2025": "7772860", "population": "7772860", "growthRate": "0.01273", "city": "Dongguan", "country": "China", "type": "w", "cca2": "CN", "rank": "54", "result_num": "0", "osm_id": "3464319", "display_na": "东莞市, 广东省, 中国", "category": "boundary", "latlong": "administrative" }, "geometry": { "type": "Point", "coordinates": [ 113.7457788, 23.0205969 ] } },
{ "type": "Feature", "properties": { "pop2024": "7725860", "pop2025": "7768510", "population": "7768510", "growthRate": "0.00552", "city": "Hong Kong", "country": "Hong Kong", "type": "w", "cca2": "HK", "rank": "55", "result_num": "0", "osm_id": "10264792", "display_na": "香港島 Hong Kong Island, 香港 Hong Kong, 中国", "category": "boundary", "latlong": "administrative" }, "geometry": { "type": "Point", "coordinates": [ 114.1628131, 22.2793278 ] } },
{ "type": "Feature", "properties": { "pop2024": "7345850", "pop2025": "7525720", "population": "7525720", "growthRate": "0.02449", "city": "Pune", "country": "India", "type": "w", "cca2": "IN", "rank": "56", "result_num": "0", "osm_id": "10351626", "display_na": "Pune City, Pune, Maharashtra, India", "category": "boundary", "latlong": "administrative" }, "geometry": { "type": "Point", "coordinates": [ 73.8545071, 18.5213738 ] } },
{ "type": "Feature", "properties": { "pop2024": "6938010", "pop2025": "7066860", "population": "7066860", "growthRate": "0.01857", "city": "Haerbin", "country": "China", "type": "w", "cca2": "CN", "rank": "57", "result_num": "0", "osm_id": "384165794", "display_na": "哈尔滨路, 合肥路街道, 市北区, 青岛市, 山东省, 266011, 中国", "category": "highway", "latlong": "trunk" }, "geometry": { "type": "Point", "coordinates": [ 120.3918915, 36.1135044 ] } },
{ "type": "Feature", "properties": { "pop2024": "6950950", "pop2025": "6999460", "population": "6999460", "growthRate": "0.00698", "city": "Santiago", "country": "Chile", "type": "w", "cca2": "CL", "rank": "58", "result_num": "0", "osm_id": "164609", "display_na": "Santiago, Provincia de Santiago, Región Metropolitana de Santiago, Chile", "category": "boundary", "latlong": "administrative" }, "geometry": { "type": "Point", "coordinates": [ -70.6504502, -33.4377756 ] } },
{ "type": "Feature", "properties": { "pop2024": "6783240", "pop2025": "6810530", "population": "6810530", "growthRate": "0.00402", "city": "Madrid", "country": "Spain", "type": "w", "cca2": "ES", "rank": "59", "result_num": "0", "osm_id": "5326784", "display_na": "Madrid, Comunidad de Madrid, España", "category": "boundary", "latlong": "administrative" }, "geometry": { "type": "Point", "coordinates": [ -3.7035825, 40.4167047 ] } },
{ "type": "Feature", "properties": { "pop2024": "6542070", "pop2025": "6754180", "population": "6754180", "growthRate": "0.03242", "city": "Khartoum", "country": "Sudan", "type": "w", "cca2": "SD", "rank": "60", "result_num": "0", "osm_id": "3851428", "display_na": "الخرطوم, السودان", "category": "boundary", "latlong": "administrative" }, "geometry": { "type": "Point", "coordinates": [ 32.57389790402307, 15.5038301 ] } },
{ "type": "Feature", "properties": { "pop2024": "6431430", "pop2025": "6491290", "population": "6491290", "growthRate": "0.00931", "city": "Toronto", "country": "Canada", "type": "w", "cca2": "CA", "rank": "61", "result_num": "0", "osm_id": "324211", "display_na": "Toronto, Golden Horseshoe, Ontario, Canada", "category": "boundary", "latlong": "administrative" }, "geometry": { "type": "Point", "coordinates": [ -79.3839347, 43.6534817 ] } },
{ "type": "Feature", "properties": { "pop2024": "6324350", "pop2025": "6444580", "population": "6444580", "growthRate": "0.01901", "city": "Johannesburg", "country": "South Africa", "type": "w", "cca2": "ZA", "rank": "62", "result_num": "0", "osm_id": "261833893", "display_na": "Johannesburg, City of Johannesburg Metropolitan Municipality, Gauteng, 2001, South Africa", "category": "place", "latlong": "city" }, "geometry": { "type": "Point", "coordinates": [ 28.049722, -26.205 ] } },
{ "type": "Feature", "properties": { "pop2024": "6300410", "pop2025": "6351680", "population": "6351680", "growthRate": "0.00814", "city": "Belo Horizonte", "country": "Brazil", "type": "w", "cca2": "BR", "rank": "63", "result_num": "0", "osm_id": "368782", "display_na": "Belo Horizonte, Região Geográfica Imediata de Belo Horizonte, Região Metropolitana de Belo Horizonte, Região Geográfica Intermediária de Belo Horizonte, Minas Gerais, Região Sudeste, Brasil", "category": "boundary", "latlong": "administrative" }, "geometry": { "type": "Point", "coordinates": [ -43.9450948, -19.9227318 ] } },
{ "type": "Feature", "properties": { "pop2024": "6217490", "pop2025": "6347380", "population": "6347380", "growthRate": "0.02089", "city": "Dalian", "country": "China", "type": "w", "cca2": "CN", "rank": "64", "result_num": "0", "osm_id": "2764565", "display_na": "大连市, 辽宁省, 中国", "category": "boundary", "latlong": "administrative" }, "geometry": { "type": "Point", "coordinates": [ 122.255833, 39.740278 ] } },
{ "type": "Feature", "properties": { "pop2024": "6104600", "pop2025": "6217970", "population": "6217970", "growthRate": "0.01857", "city": "Qingdao", "country": "China", "type": "w", "cca2": "CN", "rank": "65", "result_num": "0", "osm_id": "3469133", "display_na": "青岛市, 山东省, 266000, 中国", "category": "boundary", "latlong": "administrative" }, "geometry": { "type": "Point", "coordinates": [ 120.3777659, 36.0663249 ] } },
{ "type": "Feature", "properties": { "pop2024": "6119200", "pop2025": "6157270", "population": "6157270", "growthRate": "0.00622", "city": "Singapore", "country": "Singapore", "type": "w", "cca2": "SG", "rank": "66", "result_num": "0", "osm_id": "17140517", "display_na": "Singapore", "category": "place", "latlong": "city" }, "geometry": { "type": "Point", "coordinates": [ 103.8519072, 1.2899175 ] } },
{ "type": "Feature", "properties": { "pop2024": "6014890", "pop2025": "6156140", "population": "6156140", "growthRate": "0.02348", "city": "Zhengzhou", "country": "China", "type": "w", "cca2": "CN", "rank": "67", "result_num": "0", "osm_id": "3283765", "display_na": "郑州市, 河南省, 中国", "category": "boundary", "latlong": "administrative" }, "geometry": { "type": "Point", "coordinates": [ 113.619321, 34.7472531 ] } },
{ "type": "Feature", "properties": { "pop2024": "5940700", "pop2025": "6065850", "population": "6065850", "growthRate": "0.02107", "city": "Ji nan Shandong", "country": "China", "type": "w", "cca2": "CN", "rank": "68", "result_num": "0", "osm_id": "226217728", "display_na": "山东省实验中学, 73, 经七路, 七一小区社区, 杆石桥街道, 市中区, 济南市, 山东省, 250001, 中国", "category": "amenity", "latlong": "school" }, "geometry": { "type": "Point", "coordinates": [ 116.998479251145483, 36.6586401 ] } },
{ "type": "Feature", "properties": { "pop2024": "5866700", "pop2025": "6056880", "population": "6056880", "growthRate": "0.03242", "city": "Abidjan", "country": "Ivory Coast", "type": "w", "cca2": "CI", "rank": "69", "result_num": "0", "osm_id": "1046100133", "display_na": "Abidjan, Le Plateau, Abidjan, Côte d’Ivoire", "category": "place", "latlong": "city" }, "geometry": { "type": "Point", "coordinates": [ -4.016107, 5.320357 ] } },
{ "type": "Feature", "properties": { "pop2024": "5703630", "pop2025": "5956680", "population": "5956680", "growthRate": "0.04437", "city": "Addis Ababa", "country": "Ethiopia", "type": "w", "cca2": "ET", "rank": "70", "result_num": "0", "osm_id": "27565076", "display_na": "አዲስ አበባ / Addis Ababa, Arada, አዲስ አበባ Addis Ababa أديس أبابا, አዲስ አበባ أديس أبابا, 3578, ኢትዮጵያ إثيوبيا", "category": "place", "latlong": "city" }, "geometry": { "type": "Point", "coordinates": [ 38.7524127, 9.0358287 ] } },
{ "type": "Feature", "properties": { "pop2024": "5709680", "pop2025": "5813190", "population": "5813190", "growthRate": "0.01813", "city": "Yangon", "country": "Myanmar", "type": "w", "cca2": "MM", "rank": "71", "result_num": "0", "osm_id": "6004094", "display_na": "ရန်ကုန်မြို့, ရန်ကုန်တိုင်းဒေသကြီး, မြန်မာ", "category": "boundary", "latlong": "administrative" }, "geometry": { "type": "Point", "coordinates": [ 96.1609916, 16.7967129 ] } },
{ "type": "Feature", "properties": { "pop2024": "5696130", "pop2025": "5807050", "population": "5807050", "growthRate": "0.01947", "city": "Alexandria", "country": "Egypt", "type": "w", "cca2": "EG", "rank": "72", "result_num": "0", "osm_id": "27565020", "display_na": "الإسكندرية, 21519, مصر", "category": "place", "latlong": "city" }, "geometry": { "type": "Point", "coordinates": [ 29.8951716, 31.1991806 ] } },
{ "type": "Feature", "properties": { "pop2024": "5541170", "pop2025": "5766990", "population": "5766990", "growthRate": "0.04075", "city": "Nairobi", "country": "Kenya", "type": "w", "cca2": "KE", "rank": "73", "result_num": "0", "osm_id": "9721587", "display_na": "Nairobi, Kenya", "category": "boundary", "latlong": "administrative" }, "geometry": { "type": "Point", "coordinates": [ 36.8172449, -1.2832533 ] } },
{ "type": "Feature", "properties": { "pop2024": "5711920", "pop2025": "5733250", "population": "5733250", "growthRate": "0.00373", "city": "Barcelona", "country": "Spain", "type": "w", "cca2": "ES", "rank": "74", "result_num": "0", "osm_id": "347950", "display_na": "Barcelona, Barcelonès, Barcelona, Catalunya, España", "category": "boundary", "latlong": "administrative" }, "geometry": { "type": "Point", "coordinates": [ 2.177073, 41.3825802 ] } },
{ "type": "Feature", "properties": { "pop2024": "5513610", "pop2025": "5653490", "population": "5653490", "growthRate": "0.02537", "city": "Chittagong", "country": "Bangladesh", "type": "w", "cca2": "BD", "rank": "75", "result_num": "0", "osm_id": "8541366252", "display_na": "চট্টগ্রাম, চট্টগ্রাম জেলা, চট্টগ্রাম বিভাগ, 4000, বাংলাদেশ", "category": "place", "latlong": "city" }, "geometry": { "type": "Point", "coordinates": [ 91.8344348, 22.333778 ] } },
{ "type": "Feature", "properties": { "pop2024": "5431800", "pop2025": "5602200", "population": "5602200", "growthRate": "0.03137", "city": "Hanoi", "country": "Vietnam", "type": "w", "cca2": "VN", "rank": "76", "result_num": "0", "osm_id": "1903516", "display_na": "Thành phố Hà Nội, Việt Nam", "category": "boundary", "latlong": "administrative" }, "geometry": { "type": "Point", "coordinates": [ 105.854041, 21.0283334 ] } },
{ "type": "Feature", "properties": { "pop2024": "5581710", "pop2025": "5597340", "population": "5597340", "growthRate": "0.0028", "city": "Saint Petersburg", "country": "Russia", "type": "w", "cca2": "RU", "rank": "77", "result_num": "0", "osm_id": "337422", "display_na": "Санкт-Петербург, Северо-Западный федеральный округ, Россия", "category": "boundary", "latlong": "administrative" }, "geometry": { "type": "Point", "coordinates": [ 30.1586551, 59.9606739 ] } },
{ "type": "Feature", "properties": { "pop2024": "5499680", "pop2025": "5578580", "population": "5578580", "growthRate": "0.01435", "city": "Guadalajara", "country": "Mexico", "type": "w", "cca2": "MX", "rank": "78", "result_num": "0", "osm_id": "1663173902", "display_na": "Guadalajara, Región Centro, Jalisco, 44450, México", "category": "place", "latlong": "city" }, "geometry": { "type": "Point", "coordinates": [ -103.338396, 20.6720375 ] } },
{ "type": "Feature", "properties": { "pop2024": "5477090", "pop2025": "5550490", "population": "5550490", "growthRate": "0.0134", "city": "Ankara", "country": "Turkey", "type": "w", "cca2": "TR", "rank": "79", "result_num": "0", "osm_id": "25869410", "display_na": "Ankara, Çankaya, Ankara, İç Anadolu Bölgesi, 06420, Türkiye", "category": "place", "latlong": "city" }, "geometry": { "type": "Point", "coordinates": [ 32.8540497, 39.9207759 ] } },
{ "type": "Feature", "properties": { "pop2024": "5478080", "pop2025": "5465920", "population": "5465920", "growthRate": "-0.00222", "city": "Fukuoka", "country": "Japan", "type": "w", "cca2": "JP", "rank": "80", "result_num": "0", "osm_id": "1553735", "display_na": "福岡県, 日本", "category": "boundary", "latlong": "administrative" }, "geometry": { "type": "Point", "coordinates": [ 130.618001600000014, 33.6251241 ] } },
{ "type": "Feature", "properties": { "pop2024": "5315600", "pop2025": "5391890", "population": "5391890", "growthRate": "0.01435", "city": "Melbourne", "country": "Australia", "type": "w", "cca2": "AU", "rank": "81", "result_num": "0", "osm_id": "4246124", "display_na": "Melbourne, City of Melbourne, Victoria, Australia", "category": "boundary", "latlong": "administrative" }, "geometry": { "type": "Point", "coordinates": [ 144.9631732, -37.8142454 ] } },
{ "type": "Feature", "properties": { "pop2024": "5195360", "pop2025": "5272360", "population": "5272360", "growthRate": "0.01482", "city": "Monterrey", "country": "Mexico", "type": "w", "cca2": "MX", "rank": "82", "result_num": "0", "osm_id": "4145210488", "display_na": "Monterrey, Nuevo León, 64010, México", "category": "place", "latlong": "city" }, "geometry": { "type": "Point", "coordinates": [ -100.315258, 25.6802019 ] } },
{ "type": "Feature", "properties": { "pop2024": "5184900", "pop2025": "5248790", "population": "5248790", "growthRate": "0.01232", "city": "Sydney", "country": "Australia", "type": "w", "cca2": "AU", "rank": "83", "result_num": "0", "osm_id": "5750005", "display_na": "Sydney, Council of the City of Sydney, New South Wales, Australia", "category": "boundary", "latlong": "administrative" }, "geometry": { "type": "Point", "coordinates": [ 151.2082848, -33.8698439 ] } },
{ "type": "Feature", "properties": { "pop2024": "5005960", "pop2025": "5132170", "population": "5132170", "growthRate": "0.02521", "city": "Urumqi", "country": "China", "type": "w", "cca2": "CN", "rank": "84", "result_num": "0", "osm_id": "2752472", "display_na": "乌鲁木齐市 ئۈرۈمچى, 新疆维吾尔自治区 شىنجاڭ ئۇيغۇر ئاپتونوم رايونی, 中国", "category": "boundary", "latlong": "administrative" }, "geometry": { "type": "Point", "coordinates": [ 87.6139038, 43.8244074 ] } },
{ "type": "Feature", "properties": { "pop2024": "5027980", "pop2025": "5128270", "population": "5128270", "growthRate": "0.01995", "city": "Changsha", "country": "China", "type": "w", "cca2": "CN", "rank": "85", "result_num": "0", "osm_id": "3202711", "display_na": "长沙市, 湖南省, 中国", "category": "boundary", "latlong": "administrative" }, "geometry": { "type": "Point", "coordinates": [ 113.2384362, 28.1450774 ] } },
{ "type": "Feature", "properties": { "pop2024": "4977830", "pop2025": "5063580", "population": "5063580", "growthRate": "0.01723", "city": "Cape Town", "country": "South Africa", "type": "w", "cca2": "ZA", "rank": "86", "result_num": "0", "osm_id": "32675806", "display_na": "Cape Town, City of Cape Town, Western Cape, 8001, South Africa", "category": "place", "latlong": "city" }, "geometry": { "type": "Point", "coordinates": [ 18.4172197, -33.9288301 ] } },
{ "type": "Feature", "properties": { "pop2024": "4943210", "pop2025": "5021600", "population": "5021600", "growthRate": "0.01586", "city": "Jiddah", "country": "Saudi Arabia", "type": "w", "cca2": "SA", "rank": "87", "result_num": "0", "osm_id": "1933393717", "display_na": "جدة, محافظة جدة, منطقة مكة المكرمة, 23124, السعودية", "category": "place", "latlong": "city" }, "geometry": { "type": "Point", "coordinates": [ 39.1742363, 21.5504432 ] } }
]
}
